Code,Name,Postcode,latitude,longitude,geocoded,hospital,provider,community_id,weighted_in_degree,weighted_out_degree,total_transfers,cross_community_bridges,node_size
RCF,AIREDALE NHS FOUNDATION TRUST,BD20 6TD,53.897957,-1.962729,True,RCF,AIREDALE NHS FOUNDATION TRUST,5,243,2144,2387,20,6.04138957248326
RBS,ALDER HEY CHILDREN'S NHS FOUNDATION TRUST,L12 2AP,53.421263,-2.897796,True,RBS,ALDER HEY CHILDREN'S NHS FOUNDATION TRUST,0,822,162,984,7,6.147427459508957
RTK,ASHFORD AND ST PETER'S HOSPITALS NHS FOUNDATION TRUST,KT16 0PZ,51.377831,-0.527041,True,RTK,ASHFORD AND ST PETER'S HOSPITALS NHS FOUNDATION TRUST,1,2192,5345,7537,83,6.398328850226063
RF4,"BARKING, HAVERING AND REDBRIDGE UNIVERSITY HOSPITALS NHS TRUST",RM7 0AG,51.568649,0.179058,True,RF4,"BARKING, HAVERING AND REDBRIDGE UNIVERSITY HOSPITALS NHS TRUST",8,743,2030,2773,75,6.132959423109941
RFF,BARNSLEY HOSPITAL NHS FOUNDATION TRUST,S75 2EP,53.55915,-1.499495,True,RFF,BARNSLEY HOSPITAL NHS FOUNDATION TRUST,10,3554,15562,19116,55,6.6477651233331425
R1H,BARTS HEALTH NHS TRUST,E1 2ES,51.517168,-0.056023,True,R1H,BARTS HEALTH NHS TRUST,8,4727,3382,8109,146,6.862587992903337
RC9,BEDFORDSHIRE HOSPITALS NHS FOUNDATION TRUST,LU4 0DZ,51.894292,-0.474153,True,RC9,LUTON AND DUNSTABLE HOSPITAL NHS FOUNDATION TRUST,2,331,5584,5915,63,6.057505866193556
RQ3,BIRMINGHAM WOMEN'S AND CHILDREN'S NHS FOUNDATION TRUST,B4 6NH,52.484784,-1.893809,True,RQ3,BIRMINGHAM CHILDREN'S HOSPITAL NHS FOUNDATION TRUST,4,5779,7291,13070,83,7.0552509586218735
RXL,BLACKPOOL TEACHING HOSPITALS NHS FOUNDATION TRUST,FY3 8NR,53.820675,-3.016275,True,RXL,BLACKPOOL TEACHING HOSPITALS NHS FOUNDATION TRUST,0,1223,1813,3036,42,6.220866479711555
RMC,BOLTON NHS FOUNDATION TRUST,BL4 0JR,53.553973,-2.429892,True,RMC,BOLTON NHS FOUNDATION TRUST,0,132,2351,2483,23,6.021061065644137
RAE,BRADFORD TEACHING HOSPITALS NHS FOUNDATION TRUST,BD9 6RJ,53.805995,-1.7947,True,RAE,BRADFORD TEACHING HOSPITALS NHS FOUNDATION TRUST,5,1506,1585,3091,45,6.272695015166256
RXQ,BUCKINGHAMSHIRE HEALTHCARE NHS TRUST,HP7 0JD,51.663005,-0.621408,True,RXQ,BUCKINGHAMSHIRE HEALTHCARE NHS TRUST,2,641,2277,2918,64,6.114279173582098
RWY,CALDERDALE AND HUDDERSFIELD NHS FOUNDATION TRUST,HD3 3EA,53.655489,-1.816339,True,RWY,CALDERDALE AND HUDDERSFIELD NHS FOUNDATION TRUST,5,1778,1399,3177,67,6.322509013907171
RGT,CAMBRIDGE UNIVERSITY HOSPITALS NHS FOUNDATION TRUST,CB2 0QQ,52.175003,0.14065,True,RGT,CAMBRIDGE UNIVERSITY HOSPITALS NHS FOUNDATION TRUST,6,22790,2973,25763,171,10.17064041664282
RQM,CHELSEA AND WESTMINSTER HOSPITAL NHS FOUNDATION TRUST,SW10 9NH,51.484309,-0.18162,True,RQM,CHELSEA AND WESTMINSTER HOSPITAL NHS FOUNDATION TRUST,2,1848,4742,6590,79,6.335328792994907
RFS,CHESTERFIELD ROYAL HOSPITAL NHS FOUNDATION TRUST,S44 5BL,53.236233,-1.400049,True,RFS,CHESTERFIELD ROYAL HOSPITAL NHS FOUNDATION TRUST,10,388,16137,16525,53,6.067944829164998
RJR,COUNTESS OF CHESTER HOSPITAL NHS FOUNDATION TRUST,CH2 1UL,53.208816,-2.897886,True,RJR,COUNTESS OF CHESTER HOSPITAL NHS FOUNDATION TRUST,0,593,518,1111,20,6.105488467921937
RXP,COUNTY DURHAM AND DARLINGTON NHS FOUNDATION TRUST,DL3 6HX,54.530385,-1.563742,True,RXP,COUNTY DURHAM AND DARLINGTON NHS FOUNDATION TRUST,7,646,4306,4952,49,6.115194872088365
RJ6,CROYDON HEALTH SERVICES NHS TRUST,CR7 7YE,51.389128,-0.108758,True,RJ6,CROYDON HEALTH SERVICES NHS TRUST,1,1242,8802,10044,82,6.224346134035369
RN7,DARTFORD AND GRAVESHAM NHS TRUST,DA2 8DA,51.434952,0.258673,True,RN7,DARTFORD AND GRAVESHAM NHS TRUST,2,488,4708,5196,37,6.086258799290333
RP5,DONCASTER AND BASSETLAW TEACHING HOSPITALS NHS FOUNDATION TRUST,DN2 5LT,53.530805,-1.108942,True,RP5,DONCASTER AND BASSETLAW HOSPITALS NHS FOUNDATION TRUST,10,166,27816,27982,61,6.027287815486751
RBD,DORSET COUNTY HOSPITAL NHS FOUNDATION TRUST,DT1 2JY,50.712931,-2.446934,True,RBD,DORSET COUNTY HOSPITAL NHS FOUNDATION TRUST,1,1222,1170,2392,45,6.220683340010302
RWH,EAST AND NORTH HERTFORDSHIRE TEACHING NHS TRUST,SG1 4AB,51.924246,-0.211889,True,RWH,EAST AND NORTH HERTFORDSHIRE NHS TRUST,2,16334,2191,18525,97,8.988290505351113
RJN,EAST CHESHIRE NHS TRUST,SK10 3BL,53.262339,-2.141072,True,RJN,EAST CHESHIRE NHS TRUST,0,75,2649,2724,17,6.010622102672695
RVV,EAST KENT HOSPITALS UNIVERSITY NHS FOUNDATION TRUST,CT1 3NG,51.266593,1.087113,True,RVV,EAST KENT HOSPITALS UNIVERSITY NHS FOUNDATION TRUST,2,2721,6341,9062,84,6.4952097521890915
RXR,EAST LANCASHIRE HOSPITALS NHS TRUST,BB2 3HH,53.735575,-2.462715,True,RXR,EAST LANCASHIRE HOSPITALS NHS TRUST,0,521,1919,2440,43,6.092302409431695
RDE,EAST SUFFOLK AND NORTH ESSEX NHS FOUNDATION TRUST,CO4 5JL,51.910175,0.899213,True,RDE,COLCHESTER HOSPITAL UNIVERSITY NHS FOUNDATION TRUST,6,3150,2755,5905,87,6.573776684026784
RXC,EAST SUSSEX HEALTHCARE NHS TRUST,TN37 7PT,50.88769,0.561978,True,RXC,EAST SUSSEX HEALTHCARE NHS TRUST,2,51,2097,2148,40,6.0062267498426145
RVR,EPSOM AND ST HELIER UNIVERSITY HOSPITALS NHS TRUST,SM5 1AA,51.380188,-0.183708,True,RVR,EPSOM AND ST HELIER UNIVERSITY HOSPITALS NHS TRUST,1,465,3490,3955,32,6.082046586161506
RDU,FRIMLEY HEALTH NHS FOUNDATION TRUST,GU16 7UJ,51.319666,-0.742011,True,RDU,FRIMLEY HEALTH NHS FOUNDATION TRUST,1,4077,6223,10300,85,6.743547187088651
RR7,GATESHEAD HEALTH NHS FOUNDATION TRUST,NE9 6SX,54.939388,-1.580794,True,RR7,GATESHEAD HEALTH NHS FOUNDATION TRUST,7,10436,4809,15245,27,7.9081325473587825
RLT,GEORGE ELIOT HOSPITAL NHS TRUST,CV10 7DJ,52.512597,-1.478431,True,RLT,GEORGE ELIOT HOSPITAL NHS TRUST,11,431,13056,13487,40,6.075819836318892
RTE,GLOUCESTERSHIRE HOSPITALS NHS FOUNDATION TRUST,GL53 7AN,51.892128,-2.071875,True,RTE,GLOUCESTERSHIRE HOSPITALS NHS FOUNDATION TRUST,3,575,1766,2341,58,6.102191953299376
RN3,GREAT WESTERN HOSPITALS NHS FOUNDATION TRUST,SN3 6BB,51.538529,-1.727188,True,RN3,GREAT WESTERN HOSPITALS NHS FOUNDATION TRUST,3,255,1689,1944,42,6.0435872488983
RJ1,GUY'S AND ST THOMAS' NHS FOUNDATION TRUST,SE1 7EH,51.49796,-0.11888,True,RJ1,GUY'S AND ST THOMAS' NHS FOUNDATION TRUST,2,52240,7655,59895,159,15.56410461855434
RN5,HAMPSHIRE HOSPITALS NHS FOUNDATION TRUST,RG24 9NA,51.280633,-1.1099,True,RN5,HAMPSHIRE HOSPITALS NHS FOUNDATION TRUST,1,688,3125,3813,63,6.1228867395410065
RCD,HARROGATE AND DISTRICT NHS FOUNDATION TRUST,HG2 7SX,53.993822,-1.517579,True,RCD,HARROGATE AND DISTRICT NHS FOUNDATION TRUST,5,843,1340,2183,57,6.151273393235277
RQX,HOMERTON HEALTHCARE NHS FOUNDATION TRUST,E9 6SR,51.550635,-0.046072,True,RQX,HOMERTON HEALTHCARE NHS FOUNDATION TRUST,8,91,2549,2640,43,6.013552337892749
RWA,HULL UNIVERSITY TEACHING HOSPITALS NHS TRUST,HU3 2JZ,53.744134,-0.358153,True,RWA,HULL AND EAST YORKSHIRE HOSPITALS NHS TRUST,5,34662,1864,36526,147,12.344874949922737
RYJ,IMPERIAL COLLEGE HEALTHCARE NHS TRUST,W2 1BL,51.517542,-0.174387,True,RYJ,IMPERIAL COLLEGE HEALTHCARE NHS TRUST,2,3005,4652,7657,99,6.547221427345047
R1F,ISLE OF WIGHT NHS TRUST,PO30 5TG,50.710832,-1.301363,True,R1F,ISLE OF WIGHT NHS TRUST,1,208,766,974,15,6.034979682939392
RGP,JAMES PAGET UNIVERSITY HOSPITALS NHS FOUNDATION TRUST,NR31 6LA,52.561697,1.718003,True,RGP,JAMES PAGET UNIVERSITY HOSPITALS NHS FOUNDATION TRUST,6,307,2384,2691,43,6.0531105133634755
RNQ,KETTERING GENERAL HOSPITAL NHS FOUNDATION TRUST,NN16 8UZ,52.402797,-0.741279,True,RNQ,KETTERING GENERAL HOSPITAL NHS FOUNDATION TRUST,9,734,3421,4155,59,6.131311165798661
RJZ,KING'S COLLEGE HOSPITAL NHS FOUNDATION TRUST,SE5 9RS,51.468078,-0.09389,True,RJZ,KING'S COLLEGE HOSPITAL NHS FOUNDATION TRUST,2,25869,6405,32274,145,10.734527556801922
RAX,KINGSTON AND RICHMOND NHS FOUNDATION TRUST,KT2 7QB,51.414826,-0.282602,True,RAX,KINGSTON HOSPITAL NHS FOUNDATION TRUST,1,13549,2001,15550,92,8.478246437360498
RXN,LANCASHIRE TEACHING HOSPITALS NHS FOUNDATION TRUST,PR2 9HT,53.791521,-2.706842,True,RXN,LANCASHIRE TEACHING HOSPITALS NHS FOUNDATION TRUST,0,1593,2177,3770,50,6.288628169175299
RR8,LEEDS TEACHING HOSPITALS NHS TRUST,LS9 7TF,53.806885,-1.520363,True,RR8,LEEDS TEACHING HOSPITALS NHS TRUST,5,3336,6075,9411,102,6.607840668459909
RJ2,LEWISHAM AND GREENWICH NHS TRUST,SE13 6LH,51.453022,-0.017917,True,RJ2,LEWISHAM AND GREENWICH NHS TRUST,2,1321,12262,13583,52,6.2388141704343845
REM,LIVERPOOL UNIVERSITY HOSPITALS NHS FOUNDATION TRUST,L7 8XP,53.409523,-2.964809,True,REM,AINTREE UNIVERSITY HOSPITAL NHS FOUNDATION TRUST,0,1840,839,2679,44,6.33386367538488
R1K,LONDON NORTH WEST UNIVERSITY HEALTHCARE NHS TRUST,HA1 3UJ,51.575409,-0.322015,True,R1K,LONDON NORTH WEST HEALTHCARE NHS TRUST,2,847,8651,9498,74,6.152005952040291
RWF,MAIDSTONE AND TUNBRIDGE WELLS NHS TRUST,ME16 9QQ,51.273661,0.484004,True,RWF,MAIDSTONE AND TUNBRIDGE WELLS NHS TRUST,2,1388,7475,8863,68,6.2510845304183595
R0A,MANCHESTER UNIVERSITY NHS FOUNDATION TRUST,M13 9WL,53.462452,-2.227709,True,R0A,MANCHESTER UNIVERSITY NHS FOUNDATION TRUST,0,27494,1569,29063,116,11.032129571338636
RPA,MEDWAY NHS FOUNDATION TRUST,ME7 5NY,51.379861,0.54209,True,RPA,MEDWAY NHS FOUNDATION TRUST,2,578,4316,4894,39,6.102741372403136
RBN,MERSEY AND WEST LANCASHIRE TEACHING HOSPITALS NHS TRUST,L35 5DR,53.420485,-2.784953,True,RBN,ST HELENS AND KNOWSLEY HOSPITAL SERVICES NHS TRUST,0,1229,737,1966,35,6.221965317919075
RAJ,MID AND SOUTH ESSEX NHS FOUNDATION TRUST,SS0 0RY,51.553842,0.688646,True,RAJ,SOUTHEND UNIVERSITY HOSPITAL NHS FOUNDATION TRUST,6,1647,2015,3662,102,6.298517713042981
RBT,MID CHESHIRE HOSPITALS NHS FOUNDATION TRUST,CW1 4QJ,53.117701,-2.475863,True,RBT,MID CHESHIRE HOSPITALS NHS FOUNDATION TRUST,0,562,2376,2938,67,6.0998111371830825
RXF,MID YORKSHIRE TEACHING NHS TRUST,WF1 4DG,53.692434,-1.488558,True,RXF,MID YORKSHIRE HOSPITALS NHS TRUST,5,1597,1152,2749,58,6.289360727980313
RD8,MILTON KEYNES UNIVERSITY HOSPITAL NHS FOUNDATION TRUST,MK6 5LD,52.026384,-0.73576,True,RD8,MILTON KEYNES HOSPITAL NHS FOUNDATION TRUST,1,219,1795,2014,57,6.036994219653179
RM1,NORFOLK AND NORWICH UNIVERSITY HOSPITALS NHS FOUNDATION TRUST,NR4 7UY,52.617567,1.221195,True,RM1,NORFOLK AND NORWICH UNIVERSITY HOSPITALS NHS FOUNDATION TRUST,6,2583,3758,6341,65,6.469936473416128
RVJ,NORTH BRISTOL NHS TRUST,BS10 5NB,51.494806,-2.591016,True,RVJ,NORTH BRISTOL NHS TRUST,3,10806,1498,12304,95,7.975894236822526
RNN,NORTH CUMBRIA INTEGRATED CARE NHS FOUNDATION TRUST,CA2 7HY,54.896504,-2.957796,True,RNN,CUMBRIA PARTNERSHIP NHS FOUNDATION TRUST,7,1111,1943,3054,37,6.200354833171178
RAP,NORTH MIDDLESEX UNIVERSITY HOSPITAL NHS TRUST,N18 1QX,51.613096,-0.073725,True,RAP,NORTH MIDDLESEX UNIVERSITY HOSPITAL NHS TRUST,8,4860,33842,38702,74,6.886945573170034
RVW,NORTH TEES AND HARTLEPOOL NHS FOUNDATION TRUST,TS24 9AH,54.702408,-1.227851,True,RVW,NORTH TEES AND HARTLEPOOL NHS FOUNDATION TRUST,7,310,1844,2154,20,6.0536599324672355
RGN,NORTH WEST ANGLIA NHS FOUNDATION TRUST,PE3 9GZ,52.58394,-0.279371,True,RGN,PETERBOROUGH AND STAMFORD HOSPITALS NHS FOUNDATION TRUST,6,193,5741,5934,55,6.032232587420592
RNS,NORTHAMPTON GENERAL HOSPITAL NHS TRUST,NN1 5BD,52.236068,-0.883829,True,RNS,NORTHAMPTON GENERAL HOSPITAL NHS TRUST,9,2298,1686,3984,75,6.41774165855892
RM3,NORTHERN CARE ALLIANCE NHS FOUNDATION TRUST,M6 8HD,53.487562,-2.323424,True,RM3,NORTHERN CARE ALLIANCE NHS FOUNDATION TRUST,0,439,9025,9464,61,6.077284953928919
RJL,NORTHERN LINCOLNSHIRE AND GOOLE NHS FOUNDATION TRUST,DN33 2BA,53.544883,-0.096293,True,RJL,NORTHERN LINCOLNSHIRE AND GOOLE NHS FOUNDATION TRUST,5,950,24970,25920,71,6.170869341269387
RTF,NORTHUMBRIA HEALTHCARE NHS FOUNDATION TRUST,NE29 8NH,55.025248,-1.467353,True,RTF,NORTHUMBRIA HEALTHCARE NHS FOUNDATION TRUST,7,2112,7820,9932,38,6.383677674125794
RX1,NOTTINGHAM UNIVERSITY HOSPITALS NHS TRUST,NG7 2UH,52.94382,-1.185953,True,RX1,NOTTINGHAM UNIVERSITY HOSPITALS NHS TRUST,9,22280,2987,25267,149,10.077239169003605
RTH,OXFORD UNIVERSITY HOSPITALS NHS FOUNDATION TRUST,OX3 9DU,51.763867,-1.219773,True,RTH,OXFORD UNIVERSITY HOSPITALS NHS FOUNDATION TRUST,1,2167,1667,3834,117,6.393750357694729
RW6,PENNINE ACUTE HOSPITALS NHS TRUST,M8 5RB,53.517898,-2.229499,True,RW6,PENNINE ACUTE HOSPITALS NHS TRUST,0,17,558,575,6,6.0
RHU,PORTSMOUTH HOSPITALS UNIVERSITY NHS TRUST,PO6 3LY,50.850287,-1.069917,True,RHU,PORTSMOUTH HOSPITALS UNIVERSITY NATIONAL HEALTH SERVICE TRUST,1,850,1149,1999,48,6.152555371144051
RHW,ROYAL BERKSHIRE NHS FOUNDATION TRUST,RG1 5AN,51.451023,-0.95931,True,RHW,ROYAL BERKSHIRE NHS FOUNDATION TRUST,1,26,1412,1438,45,6.00164825731128
REF,ROYAL CORNWALL HOSPITALS NHS TRUST,TR1 3LJ,50.266675,-5.091511,True,REF,ROYAL CORNWALL HOSPITALS NHS TRUST,3,108,1620,1728,85,6.016665712814056
RH8,ROYAL DEVON UNIVERSITY HEALTHCARE NHS FOUNDATION TRUST,EX2 5DW,50.716692,-3.506694,True,RH8,ROYAL DEVON AND EXETER NHS FOUNDATION TRUST,3,1520,1287,2807,92,6.275258970983804
RAL,ROYAL FREE LONDON NHS FOUNDATION TRUST,NW3 2QG,51.553227,-0.165298,True,RAL,ROYAL FREE LONDON NHS FOUNDATION TRUST,8,30496,5177,35673,111,11.58191495450123
RA2,ROYAL SURREY NHS FOUNDATION TRUST,GU2 7XX,51.241012,-0.607443,True,RA2,ROYAL SURREY NHS FOUNDATION TRUST,1,2188,4239,6427,63,6.39759629142105
RD1,ROYAL UNITED HOSPITALS BATH NHS FOUNDATION TRUST,BA1 3NG,51.391662,-2.391217,True,RD1,ROYAL UNITED HOSPITAL BATH NHS FOUNDATION TRUST,3,227,2825,3052,56,6.038459337263206
RNZ,SALISBURY NHS FOUNDATION TRUST,SP2 8BJ,51.04394,-1.789814,True,RNZ,SALISBURY NHS FOUNDATION TRUST,1,9037,627,9664,90,7.6519201053053285
RXK,SANDWELL AND WEST BIRMINGHAM HOSPITALS NHS TRUST,B66 2QT,52.491258,-1.949846,True,RXK,SANDWELL AND WEST BIRMINGHAM HOSPITALS NHS TRUST,4,189,11589,11778,30,6.031500028615579
RCU,SHEFFIELD CHILDREN'S NHS FOUNDATION TRUST,S10 2TH,53.380617,-1.490628,True,RCU,SHEFFIELD CHILDREN'S NHS FOUNDATION TRUST,10,8655,7260,15915,93,7.581960739426544
RHQ,SHEFFIELD TEACHING HOSPITALS NHS FOUNDATION TRUST,S5 7AU,53.409821,-1.455966,True,RHQ,SHEFFIELD TEACHING HOSPITALS NHS FOUNDATION TRUST,10,87382,4424,91806,159,22.0
RK5,SHERWOOD FOREST HOSPITALS NHS FOUNDATION TRUST,NG17 4JL,53.134573,-1.233579,True,RK5,SHERWOOD FOREST HOSPITALS NHS FOUNDATION TRUST,9,584,13459,14043,79,6.103840210610657
RH5,SOMERSET NHS FOUNDATION TRUST,TA1 5DA,51.011569,-3.121702,True,RH5,SOMERSET NHS FOUNDATION TRUST,3,1095,2006,3101,60,6.197424597951125
RTR,SOUTH TEES HOSPITALS NHS FOUNDATION TRUST,TS4 3BW,54.551768,-1.21482,True,RTR,SOUTH TEES HOSPITALS NHS FOUNDATION TRUST,7,3717,1338,5055,71,6.67761689463744
R0B,SOUTH TYNESIDE AND SUNDERLAND NHS FOUNDATION TRUST,SR4 7TP,54.902214,-1.410327,True,R0B,SOUTH TYNESIDE AND SUNDERLAND NHS FOUNDATION TRUST,7,1594,2314,3908,29,6.288811308876553
RJC,SOUTH WARWICKSHIRE UNIVERSITY NHS FOUNDATION TRUST,CV34 5BW,52.289965,-1.583203,True,RJC,SOUTH WARWICKSHIRE UNIVERSITY NHS FOUNDATION TRUST,11,8725,13810,22535,105,7.594780518514279
RVY,SOUTHPORT AND ORMSKIRK HOSPITAL NHS TRUST,PR8 6PN,53.63357,-2.978821,True,RVY,SOUTHPORT AND ORMSKIRK HOSPITAL NHS TRUST,0,184,652,836,17,6.030584330109312
RJ7,ST GEORGE'S UNIVERSITY HOSPITALS NHS FOUNDATION TRUST,SW17 0QT,51.426682,-0.175694,True,RJ7,ST GEORGE'S HEALTHCARE NHS TRUST,1,12993,13594,26587,86,8.37642076346363
RWJ,STOCKPORT NHS FOUNDATION TRUST,SK2 7JE,53.383794,-2.132019,True,RWJ,STOCKPORT NHS FOUNDATION TRUST,0,2431,3226,5657,49,6.442099238825617
RTP,SURREY AND SUSSEX HEALTHCARE NHS TRUST,RH1 5RH,51.219192,-0.161983,True,RTP,SURREY AND SUSSEX HEALTHCARE NHS TRUST,1,502,3154,3656,66,6.088822755107881
RMP,TAMESIDE AND GLOSSOP INTEGRATED CARE NHS FOUNDATION TRUST,OL6 9RW,53.491546,-2.071432,True,RMP,TAMESIDE AND GLOSSOP INTEGRATED CARE NHS FOUNDATION TRUST,0,614,6096,6710,13,6.109334401648257
RNA,THE DUDLEY GROUP NHS FOUNDATION TRUST,DY1 2HQ,52.501908,-2.117684,True,RNA,THE DUDLEY GROUP NHS FOUNDATION TRUST,4,799,6919,7718,39,6.143215246380129
RAS,THE HILLINGDON HOSPITALS NHS FOUNDATION TRUST,UB8 3NN,51.526078,-0.461155,True,RAS,THE HILLINGDON HOSPITALS NHS FOUNDATION TRUST,2,604,6210,6814,42,6.107503004635723
RTD,THE NEWCASTLE UPON TYNE HOSPITALS NHS FOUNDATION TRUST,NE7 7DN,55.002783,-1.593393,True,RTD,THE NEWCASTLE UPON TYNE HOSPITALS NHS FOUNDATION TRUST,7,16329,12969,29298,83,8.987374806844846
RQW,THE PRINCESS ALEXANDRA HOSPITAL NHS TRUST,CM20 1QX,51.771322,0.087315,True,RQW,THE PRINCESS ALEXANDRA HOSPITAL NHS TRUST,6,136,2619,2755,39,6.02179362444915
RCX,"THE QUEEN ELIZABETH HOSPITAL, KING'S LYNN, NHS FOUNDATION TRUST",PE30 4ET,52.75663,0.446694,True,RCX,"THE QUEEN ELIZABETH HOSPITAL, KING'S LYNN, NHS FOUNDATION TRUST",6,221,3122,3343,34,6.037360499055686
RFR,THE ROTHERHAM NHS FOUNDATION TRUST,S60 2UD,53.413991,-1.342881,True,RFR,THE ROTHERHAM NHS FOUNDATION TRUST,10,993,13509,14502,38,6.178744348423281
RL4,THE ROYAL WOLVERHAMPTON NHS TRUST,WV10 0QP,52.599738,-2.095549,True,RL4,THE ROYAL WOLVERHAMPTON NHS TRUST,4,6529,6071,12600,63,7.192605734561895
RXW,THE SHREWSBURY AND TELFORD HOSPITAL NHS TRUST,SY3 8XQ,52.709274,-2.793689,True,RXW,THE SHREWSBURY AND TELFORD HOSPITAL NHS TRUST,4,400,5583,5983,66,6.070142505580038
RA9,TORBAY AND SOUTH DEVON NHS FOUNDATION TRUST,TQ2 7AA,50.482303,-3.553819,True,RA9,SOUTH DEVON HEALTHCARE NHS FOUNDATION TRUST,3,70,796,866,43,6.009706404166428
RWD,UNITED LINCOLNSHIRE TEACHING HOSPITALS NHS TRUST,LN2 5QY,53.233597,-0.519635,True,RWD,UNITED LINCOLNSHIRE HOSPITALS NHS TRUST,9,713,7450,8163,103,6.12746523207234
RRV,UNIVERSITY COLLEGE LONDON HOSPITALS NHS FOUNDATION TRUST,NW1 2PG,51.525737,-0.137384,True,RRV,UNIVERSITY COLLEGE LONDON HOSPITALS NHS FOUNDATION TRUST,8,1482,9403,10885,119,6.268299662336176
RHM,UNIVERSITY HOSPITAL SOUTHAMPTON NHS FOUNDATION TRUST,SO16 6YD,50.933011,-1.435095,True,RHM,UNIVERSITY HOSPITAL SOUTHAMPTON NHS FOUNDATION TRUST,1,2587,5142,7729,79,6.470669032221141
RRK,UNIVERSITY HOSPITALS BIRMINGHAM NHS FOUNDATION TRUST,B15 2GW,52.451833,-1.942563,True,RRK,UNIVERSITY HOSPITALS BIRMINGHAM NHS FOUNDATION TRUST,4,41394,5928,47322,166,13.577771418760374
RA7,UNIVERSITY HOSPITALS BRISTOL AND WESTON NHS FOUNDATION TRUST,BS1 3NU,51.459476,-2.593021,True,RA7,UNIVERSITY HOSPITALS BRISTOL NHS FOUNDATION TRUST,3,1977,6776,8753,75,6.35895381445659
RKB,UNIVERSITY HOSPITALS COVENTRY AND WARWICKSHIRE NHS TRUST,CV2 2DX,52.421229,-1.438395,True,RKB,UNIVERSITY HOSPITALS COVENTRY AND WARWICKSHIRE NHS TRUST,11,28501,8939,37440,146,11.216551250500773
R0D,UNIVERSITY HOSPITALS DORSET NHS FOUNDATION TRUST,BH15 2JB,50.721977,-1.97311,True,R0D,UNIVERSITY HOSPITALS DORSET NHS FOUNDATION TRUST,1,624,1272,1896,53,6.111165798660791
RTG,UNIVERSITY HOSPITALS OF DERBY AND BURTON NHS FOUNDATION TRUST,DE22 3NE,52.910425,-1.513523,True,RTG,UNIVERSITY HOSPITALS OF DERBY AND BURTON NHS FOUNDATION TRUST,9,744,4060,4804,74,6.133142562811194
RWE,UNIVERSITY HOSPITALS OF LEICESTER NHS TRUST,LE1 5WW,52.6268,-1.135953,True,RWE,UNIVERSITY HOSPITALS OF LEICESTER NHS TRUST,9,1583,2923,4506,104,6.286796772162766
RTX,UNIVERSITY HOSPITALS OF MORECAMBE BAY NHS FOUNDATION TRUST,LA9 7RG,54.306116,-2.731605,True,RTX,UNIVERSITY HOSPITALS OF MORECAMBE BAY NHS FOUNDATION TRUST,0,354,2816,3170,36,6.061718079322383
RJE,UNIVERSITY HOSPITALS OF NORTH MIDLANDS NHS TRUST,ST4 6QG,53.003262,-2.211798,True,RJE,UNIVERSITY HOSPITAL OF NORTH STAFFORDSHIRE NHS TRUST,4,3803,2453,6256,119,6.6933669089452295
RK9,UNIVERSITY HOSPITALS PLYMOUTH NHS TRUST,PL6 8DH,50.416707,-4.113712,True,RK9,UNIVERSITY HOSPITALS PLYMOUTH NHS TRUST,3,1582,1090,2672,79,6.286613632461512
RYR,UNIVERSITY HOSPITALS SUSSEX NHS FOUNDATION TRUST,BN11 2DH,50.816683,-0.363404,True,RYR,WESTERN SUSSEX HOSPITALS NHS FOUNDATION TRUST,2,695,2643,3338,79,6.12416871744978
RBK,WALSALL HEALTHCARE NHS TRUST,WS2 9PS,52.582346,-1.998918,True,RBK,WALSALL HEALTHCARE NHS TRUST,4,2223,6546,8769,49,6.404006180964918
RWW,WARRINGTON AND HALTON TEACHING HOSPITALS NHS FOUNDATION TRUST,WA5 1QG,53.393989,-2.610717,True,RWW,WARRINGTON AND HALTON HOSPITALS NHS FOUNDATION TRUST,0,41,1158,1199,19,6.00439535283008
RWG,WEST HERTFORDSHIRE TEACHING HOSPITALS NHS TRUST,WD18 0HB,51.648926,-0.404165,True,RWG,WEST HERTFORDSHIRE HOSPITALS NHS TRUST,2,242,6054,6296,50,6.0412064327820065
RGR,WEST SUFFOLK NHS FOUNDATION TRUST,IP33 2QZ,52.231679,0.709205,True,RGR,WEST SUFFOLK NHS FOUNDATION TRUST,6,676,6944,7620,48,6.120689063125965
RKE,WHITTINGTON HEALTH NHS TRUST,N19 5NF,51.566482,-0.139066,True,RKE,THE WHITTINGTON HEALTH NHS TRUST,8,13759,1223,14982,61,8.516705774623706
RBL,WIRRAL UNIVERSITY TEACHING HOSPITAL NHS FOUNDATION TRUST,CH49 5PE,53.36964,-3.096815,True,RBL,WIRRAL UNIVERSITY TEACHING HOSPITAL NHS FOUNDATION TRUST,0,198,1031,1229,31,6.033148285926859
RWP,WORCESTERSHIRE ACUTE HOSPITALS NHS TRUST,WR5 1DD,52.191205,-2.181154,True,RWP,WORCESTERSHIRE ACUTE HOSPITALS NHS TRUST,4,1312,5938,7250,65,6.237165913123104
RRF,"WRIGHTINGTON, WIGAN AND LEIGH TEACHING HOSPITALS NHS FOUNDATION TRUST",WN1 2NN,53.557755,-2.629091,True,RRF,"WRIGHTINGTON, WIGAN AND LEIGH TEACHING HOSPITALS NHS FOUNDATION TRUST",0,203,2109,2312,28,6.034063984433125
RLQ,WYE VALLEY NHS TRUST,HR1 2ER,52.058529,-2.707776,True,RLQ,WYE VALLEY NHS TRUST,4,216,3616,3832,35,6.036444800549419
RA4,YEOVIL DISTRICT HOSPITAL NHS FOUNDATION TRUST,BA21 4AT,50.944835,-2.634713,True,RA4,YEOVIL DISTRICT HOSPITAL NHS FOUNDATION TRUST,3,125,1369,1494,15,6.019779087735363
RCB,YORK AND SCARBOROUGH TEACHING HOSPITALS NHS FOUNDATION TRUST,YO31 8HE,53.96897,-1.084294,True,RCB,YORK AND SCARBOROUGH TEACHING HOSPITALS NHS FOUNDATION TRUST,5,537,10926,11463,62,6.095232644651748
