Code,Name,Postcode,latitude,longitude,geocoded
RCF,AIREDALE NHS FOUNDATION TRUST,BD20 6TD,53.897957,-1.962729,True
RBS,ALDER HEY CHILDREN'S NHS FOUNDATION TRUST,L12 2AP,53.421263,-2.897796,True
RTK,ASHFORD AND ST PETER'S HOSPITALS NHS FOUNDATION TRUST,KT16 0PZ,51.377831,-0.527041,True
RVN,AVON AND WILTSHIRE MENTAL HEALTH PARTNERSHIP NHS TRUST,BA1 3QE,51.388601,-2.392311,True
RF4,"BARKING, HAVERING AND REDBRIDGE UNIVERSITY HOSPITALS NHS TRUST",RM7 0AG,51.568649,0.179058,True
RRP,"BARNET, ENFIELD AND HARINGEY MENTAL HEALTH NHS TRUST",N15 3TH,51.580628,-0.092071,True
RFF,BARNSLEY HOSPITAL NHS FOUNDATION TRUST,S75 2EP,53.55915,-1.499495,True
RNJ,BARTS AND THE LONDON NHS TRUST,E1 1BB,51.519019,-0.058106,True
R1H,BARTS HEALTH NHS TRUST,E1 2ES,51.517168,-0.056023,True
RDD,BASILDON AND THURROCK UNIVERSITY HOSPITALS NHS FOUNDATION TRUST,SS16 5NL,51.558437,0.451767,True
RC1,BEDFORD HOSPITAL NHS TRUST,MK42 9DJ,52.128277,-0.472474,True
RC9,BEDFORDSHIRE HOSPITALS NHS FOUNDATION TRUST,LU4 0DZ,51.894292,-0.474153,True
RWX,BERKSHIRE HEALTHCARE NHS FOUNDATION TRUST,RG12 2UT,51.416178,-0.740213,True
RXT,BIRMINGHAM AND SOLIHULL MENTAL HEALTH NHS FOUNDATION TRUST,B13 8QY,52.440934,-1.89709,True
RYW,BIRMINGHAM COMMUNITY HEALTHCARE NHS FOUNDATION TRUST,B7 4BN,52.487339,-1.885821,True
RQ3,BIRMINGHAM WOMEN'S AND CHILDREN'S NHS FOUNDATION TRUST,B4 6NH,52.484784,-1.893809,True
RLU,BIRMINGHAM WOMEN'S NHS FOUNDATION TRUST,B15 2TG,52.453245,-1.9429,True
RXL,BLACKPOOL TEACHING HOSPITALS NHS FOUNDATION TRUST,FY3 8NR,53.820675,-3.016275,True
RMC,BOLTON NHS FOUNDATION TRUST,BL4 0JR,53.553973,-2.429892,True
RAE,BRADFORD TEACHING HOSPITALS NHS FOUNDATION TRUST,BD9 6RJ,53.805995,-1.7947,True
RY2,BRIDGEWATER COMMUNITY HEALTHCARE NHS FOUNDATION TRUST,WA3 7PG,53.414117,-2.527537,True
RXH,BRIGHTON AND SUSSEX UNIVERSITY HOSPITALS NHS TRUST,BN2 5BE,50.819462,-0.118149,True
RXQ,BUCKINGHAMSHIRE HEALTHCARE NHS TRUST,HP7 0JD,51.663005,-0.621408,True
RJF,BURTON HOSPITALS NHS FOUNDATION TRUST,DE13 0RB,52.817793,-1.656379,True
RWY,CALDERDALE AND HUDDERSFIELD NHS FOUNDATION TRUST,HD3 3EA,53.655489,-1.816339,True
RGT,CAMBRIDGE UNIVERSITY HOSPITALS NHS FOUNDATION TRUST,CB2 0QQ,52.175003,0.14065,True
RT1,CAMBRIDGESHIRE AND PETERBOROUGH NHS FOUNDATION TRUST,CB21 5EF,52.184505,0.188329,True
RYV,CAMBRIDGESHIRE COMMUNITY SERVICES NHS TRUST,PE27 4LG,52.322863,-0.067127,True
RV3,CENTRAL AND NORTH WEST LONDON NHS FOUNDATION TRUST,NW1 3AX,51.524338,-0.142155,True
RYX,CENTRAL LONDON COMMUNITY HEALTHCARE NHS TRUST,NW1 5JD,51.52284,-0.151514,True
RW3,CENTRAL MANCHESTER UNIVERSITY HOSPITALS NHS FOUNDATION TRUST,M13 9WL,53.462452,-2.227709,True
RQM,CHELSEA AND WESTMINSTER HOSPITAL NHS FOUNDATION TRUST,SW10 9NH,51.484309,-0.18162,True
RXA,CHESHIRE AND WIRRAL PARTNERSHIP NHS FOUNDATION TRUST,CH2 1BQ,53.211559,-2.898826,True
RFS,CHESTERFIELD ROYAL HOSPITAL NHS FOUNDATION TRUST,S44 5BL,53.236233,-1.400049,True
RJ8,CORNWALL PARTNERSHIP NHS FOUNDATION TRUST,PL31 2QN,50.471755,-4.740858,True
RJR,COUNTESS OF CHESTER HOSPITAL NHS FOUNDATION TRUST,CH2 1UL,53.208816,-2.897886,True
RXP,COUNTY DURHAM AND DARLINGTON NHS FOUNDATION TRUST,DL3 6HX,54.530385,-1.563742,True
RYG,COVENTRY AND WARWICKSHIRE PARTNERSHIP NHS TRUST,CV6 6NY,52.456608,-1.486907,True
RJ6,CROYDON HEALTH SERVICES NHS TRUST,CR7 7YE,51.389128,-0.108758,True
RX4,"CUMBRIA, NORTHUMBERLAND, TYNE AND WEAR NHS FOUNDATION TRUST",NE3 3XT,55.006495,-1.633115,True
RN7,DARTFORD AND GRAVESHAM NHS TRUST,DA2 8DA,51.434952,0.258673,True
RY8,DERBYSHIRE COMMUNITY HEALTH SERVICES NHS FOUNDATION TRUST,S42 7JE,53.239334,-1.480649,True
RXM,DERBYSHIRE HEALTHCARE NHS FOUNDATION TRUST,DE22 3LZ,52.91807,-1.512352,True
RWV,DEVON PARTNERSHIP NHS TRUST,EX2 5AF,50.715384,-3.506312,True
RP5,DONCASTER AND BASSETLAW TEACHING HOSPITALS NHS FOUNDATION TRUST,DN2 5LT,53.530805,-1.108942,True
RBD,DORSET COUNTY HOSPITAL NHS FOUNDATION TRUST,DT1 2JY,50.712931,-2.446934,True
RDY,DORSET HEALTHCARE UNIVERSITY NHS FOUNDATION TRUST,BH17 0RB,50.740063,-1.978032,True
RYK,DUDLEY INTEGRATED HEALTH AND CARE NHS TRUST,DY5 1RU,52.481734,-2.117836,True
RC3,EALING HOSPITAL NHS TRUST,UB1 3HW,51.507606,-0.345474,True
RWH,EAST AND NORTH HERTFORDSHIRE TEACHING NHS TRUST,SG1 4AB,51.924246,-0.211889,True
RJN,EAST CHESHIRE NHS TRUST,SK10 3BL,53.262339,-2.141072,True
RVV,EAST KENT HOSPITALS UNIVERSITY NHS FOUNDATION TRUST,CT1 3NG,51.266593,1.087113,True
RXR,EAST LANCASHIRE HOSPITALS NHS TRUST,BB2 3HH,53.735575,-2.462715,True
RWK,EAST LONDON NHS FOUNDATION TRUST,E1 8DE,51.513374,-0.071866,True
RX9,EAST MIDLANDS AMBULANCE SERVICE NHS TRUST,NG8 6PY,52.98148,-1.238122,True
RYC,EAST OF ENGLAND AMBULANCE SERVICE NHS TRUST,SG8 6NA,52.076599,0.01429,True
RDE,EAST SUFFOLK AND NORTH ESSEX NHS FOUNDATION TRUST,CO4 5JL,51.910175,0.899213,True
RXC,EAST SUSSEX HEALTHCARE NHS TRUST,TN37 7PT,50.88769,0.561978,True
RVR,EPSOM AND ST HELIER UNIVERSITY HOSPITALS NHS TRUST,SM5 1AA,51.380188,-0.183708,True
R1L,ESSEX PARTNERSHIP UNIVERSITY NHS FOUNDATION TRUST,SS11 7XX,51.633013,0.543374,True
RDU,FRIMLEY HEALTH NHS FOUNDATION TRUST,GU16 7UJ,51.319666,-0.742011,True
RR7,GATESHEAD HEALTH NHS FOUNDATION TRUST,NE9 6SX,54.939388,-1.580794,True
RLT,GEORGE ELIOT HOSPITAL NHS TRUST,CV10 7DJ,52.512597,-1.478431,True
R1J,GLOUCESTERSHIRE CARE SERVICES NHS TRUST,GL3 4AW,51.844174,-2.177447,True
RTQ,GLOUCESTERSHIRE HEALTH AND CARE NHS FOUNDATION TRUST,GL3 4AW,51.844174,-2.177447,True
RTE,GLOUCESTERSHIRE HOSPITALS NHS FOUNDATION TRUST,GL53 7AN,51.892128,-2.071875,True
RP4,GREAT ORMOND STREET HOSPITAL FOR CHILDREN NHS FOUNDATION TRUST,WC1N 3JH,51.522212,-0.119898,True
RN3,GREAT WESTERN HOSPITALS NHS FOUNDATION TRUST,SN3 6BB,51.538529,-1.727188,True
RXV,GREATER MANCHESTER MENTAL HEALTH NHS FOUNDATION TRUST,M25 3BL,53.536765,-2.291464,True
RJ1,GUY'S AND ST THOMAS' NHS FOUNDATION TRUST,SE1 7EH,51.49796,-0.11888,True
RQN,HAMMERSMITH HOSPITALS NHS TRUST,W12 0HS,51.517422,-0.234698,True
RW1,HAMPSHIRE AND ISLE OF WIGHT HEALTHCARE NHS FOUNDATION TRUST,SO40 2RZ,50.931292,-1.530043,True
RN5,HAMPSHIRE HOSPITALS NHS FOUNDATION TRUST,RG24 9NA,51.280633,-1.1099,True
RCD,HARROGATE AND DISTRICT NHS FOUNDATION TRUST,HG2 7SX,53.993822,-1.517579,True
RR1,HEART OF ENGLAND NHS FOUNDATION TRUST,B9 5ST,,,False
RD7,HEATHERWOOD AND WEXHAM PARK HOSPITALS NHS FOUNDATION TRUST,SL2 4HL,51.532009,-0.573974,True
R1A,HEREFORDSHIRE AND WORCESTERSHIRE HEALTH AND CARE NHS TRUST,WR5 1JR,52.192352,-2.178013,True
RY4,HERTFORDSHIRE COMMUNITY NHS TRUST,AL7 1BW,51.802232,-0.194122,True
RWR,HERTFORDSHIRE PARTNERSHIP UNIVERSITY NHS FOUNDATION TRUST,AL10 8YE,51.766985,-0.216689,True
RQX,HOMERTON HEALTHCARE NHS FOUNDATION TRUST,E9 6SR,51.550635,-0.046072,True
RY9,HOUNSLOW AND RICHMOND COMMUNITY HEALTHCARE NHS TRUST,TW11 8HU,51.427449,-0.326578,True
RWA,HULL UNIVERSITY TEACHING HOSPITALS NHS TRUST,HU3 2JZ,53.744134,-0.358153,True
RV9,HUMBER TEACHING NHS FOUNDATION TRUST,HU10 6ED,53.771873,-0.449207,True
RYJ,IMPERIAL COLLEGE HEALTHCARE NHS TRUST,W2 1BL,51.517542,-0.174387,True
RGQ,IPSWICH HOSPITAL NHS TRUST,IP4 5PD,52.056863,1.197945,True
R1F,ISLE OF WIGHT NHS TRUST,PO30 5TG,50.710832,-1.301363,True
RGP,JAMES PAGET UNIVERSITY HOSPITALS NHS FOUNDATION TRUST,NR31 6LA,52.561697,1.718003,True
RXY,KENT AND MEDWAY MENTAL HEALTH NHS TRUST,ME16 9PH,51.27321,0.485729,True
RYY,KENT COMMUNITY HEALTH NHS FOUNDATION TRUST,TN25 4AZ,51.171892,0.870742,True
RNQ,KETTERING GENERAL HOSPITAL NHS FOUNDATION TRUST,NN16 8UZ,52.402797,-0.741279,True
RJZ,KING'S COLLEGE HOSPITAL NHS FOUNDATION TRUST,SE5 9RS,51.468078,-0.09389,True
RAX,KINGSTON AND RICHMOND NHS FOUNDATION TRUST,KT2 7QB,51.414826,-0.282602,True
RW5,LANCASHIRE & SOUTH CUMBRIA NHS FOUNDATION TRUST,PR5 6AW,53.719431,-2.63894,True
RXN,LANCASHIRE TEACHING HOSPITALS NHS FOUNDATION TRUST,PR2 9HT,53.791521,-2.706842,True
RGD,LEEDS AND YORK PARTNERSHIP NHS FOUNDATION TRUST,LS7 3JX,53.821054,-1.534967,True
RY6,LEEDS COMMUNITY HEALTHCARE NHS TRUST,LS11 0DL,53.762746,-1.575641,True
RR8,LEEDS TEACHING HOSPITALS NHS TRUST,LS9 7TF,53.806885,-1.520363,True
RT5,LEICESTERSHIRE PARTNERSHIP NHS TRUST,LE3 8RA,52.65573,-1.187999,True
RJ2,LEWISHAM AND GREENWICH NHS TRUST,SE13 6LH,51.453022,-0.017917,True
RY5,LINCOLNSHIRE COMMUNITY HEALTH SERVICES NHS TRUST,LN5 7JH,53.226489,-0.52415,True
RP7,LINCOLNSHIRE PARTNERSHIP NHS FOUNDATION TRUST,LN1 1FS,53.244051,-0.556906,True
RY1,LIVERPOOL COMMUNITY HEALTH NHS TRUST,L13 1FB,53.404136,-2.929955,True
RBQ,LIVERPOOL HEART AND CHEST HOSPITAL NHS FOUNDATION TRUST,L14 3PE,53.411167,-2.897989,True
REM,LIVERPOOL UNIVERSITY HOSPITALS NHS FOUNDATION TRUST,L7 8XP,53.409523,-2.964809,True
REP,LIVERPOOL WOMEN'S NHS FOUNDATION TRUST,L8 7SS,53.398478,-2.960077,True
RRU,LONDON AMBULANCE SERVICE NHS TRUST,SE1 8SD,51.500175,-0.109005,True
R1K,LONDON NORTH WEST UNIVERSITY HEALTHCARE NHS TRUST,HA1 3UJ,51.575409,-0.322015,True
RWF,MAIDSTONE AND TUNBRIDGE WELLS NHS TRUST,ME16 9QQ,51.273661,0.484004,True
R0A,MANCHESTER UNIVERSITY NHS FOUNDATION TRUST,M13 9WL,53.462452,-2.227709,True
RPA,MEDWAY NHS FOUNDATION TRUST,ME7 5NY,51.379861,0.54209,True
RBN,MERSEY AND WEST LANCASHIRE TEACHING HOSPITALS NHS TRUST,L35 5DR,53.420485,-2.784953,True
RW4,MERSEY CARE NHS FOUNDATION TRUST,L34 1PJ,53.424116,-2.826374,True
RAJ,MID AND SOUTH ESSEX NHS FOUNDATION TRUST,SS0 0RY,51.553842,0.688646,True
RBT,MID CHESHIRE HOSPITALS NHS FOUNDATION TRUST,CW1 4QJ,53.117701,-2.475863,True
RQ8,MID ESSEX HOSPITAL SERVICES NHS TRUST,CM1 7ET,51.774662,0.466021,True
RXF,MID YORKSHIRE TEACHING NHS TRUST,WF1 4DG,53.692434,-1.488558,True
RRE,MIDLANDS PARTNERSHIP UNIVERSITY NHS FOUNDATION TRUST,ST16 3SR,52.81065,-2.109263,True
RD8,MILTON KEYNES UNIVERSITY HOSPITAL NHS FOUNDATION TRUST,MK6 5LD,52.026384,-0.73576,True
RP6,MOORFIELDS EYE HOSPITAL NHS FOUNDATION TRUST,EC1V 2PD,51.527248,-0.089863,True
RYH,NHS DIRECT NHS TRUST,E1 8EU,51.513069,-0.070279,True
RM1,NORFOLK AND NORWICH UNIVERSITY HOSPITALS NHS FOUNDATION TRUST,NR4 7UY,52.617567,1.221195,True
RMY,NORFOLK AND SUFFOLK NHS FOUNDATION TRUST,NR1 2DH,52.615201,1.307669,True
RY3,NORFOLK COMMUNITY HEALTH AND CARE NHS TRUST,NR2 3TU,52.633947,1.262489,True
RVJ,NORTH BRISTOL NHS TRUST,BS10 5NB,51.494806,-2.591016,True
RNN,NORTH CUMBRIA INTEGRATED CARE NHS FOUNDATION TRUST,CA2 7HY,54.896504,-2.957796,True
RNL,NORTH CUMBRIA UNIVERSITY HOSPITALS NHS TRUST,CA2 7HY,54.896504,-2.957796,True
RX6,NORTH EAST AMBULANCE SERVICE NHS FOUNDATION TRUST,NE15 8NY,54.96972,-1.712379,True
RAT,NORTH EAST LONDON NHS FOUNDATION TRUST,RM13 8GQ,51.518578,0.171162,True
RRD,NORTH ESSEX PARTNERSHIP UNIVERSITY NHS FOUNDATION TRUST,CM2 0QX,51.729815,0.467183,True
G6V2S,NORTH LONDON NHS FOUNDATION TRUST,NW1 0PE,51.536652,-0.131632,True
RAP,NORTH MIDDLESEX UNIVERSITY HOSPITAL NHS TRUST,N18 1QX,51.613096,-0.073725,True
RLY,NORTH STAFFORDSHIRE COMBINED HEALTHCARE NHS TRUST,ST4 8HH,52.96839,-2.167808,True
RVW,NORTH TEES AND HARTLEPOOL NHS FOUNDATION TRUST,TS24 9AH,54.702408,-1.227851,True
RX7,NORTH WEST AMBULANCE SERVICE NHS TRUST,BL1 5DD,53.579021,-2.475804,True
RGN,NORTH WEST ANGLIA NHS FOUNDATION TRUST,PE3 9GZ,52.58394,-0.279371,True
RV8,NORTH WEST LONDON HOSPITALS NHS TRUST,HA1 3UJ,51.575409,-0.322015,True
RNS,NORTHAMPTON GENERAL HOSPITAL NHS TRUST,NN1 5BD,52.236068,-0.883829,True
RP1,NORTHAMPTONSHIRE HEALTHCARE NHS FOUNDATION TRUST,NN15 7PW,52.394115,-0.722185,True
RM3,NORTHERN CARE ALLIANCE NHS FOUNDATION TRUST,M6 8HD,53.487562,-2.323424,True
RJL,NORTHERN LINCOLNSHIRE AND GOOLE NHS FOUNDATION TRUST,DN33 2BA,53.544883,-0.096293,True
RTF,NORTHUMBRIA HEALTHCARE NHS FOUNDATION TRUST,NE29 8NH,55.025248,-1.467353,True
RX1,NOTTINGHAM UNIVERSITY HOSPITALS NHS TRUST,NG7 2UH,52.94382,-1.185953,True
RHA,NOTTINGHAMSHIRE HEALTHCARE NHS FOUNDATION TRUST,NG3 6AA,52.979292,-1.126428,True
RBF,NUFFIELD ORTHOPAEDIC CENTRE NHS TRUST,OX3 7LD,51.754093,-1.20896,True
RNU,OXFORD HEALTH NHS FOUNDATION TRUST,OX4 4XN,51.717427,-1.229461,True
RTH,OXFORD UNIVERSITY HOSPITALS NHS FOUNDATION TRUST,OX3 9DU,51.763867,-1.219773,True
RPG,OXLEAS NHS FOUNDATION TRUST,DA2 7WG,51.434795,0.174767,True
RW6,PENNINE ACUTE HOSPITALS NHS TRUST,M8 5RB,53.517898,-2.229499,True
RT2,PENNINE CARE NHS FOUNDATION TRUST,OL6 7SR,53.485827,-2.099981,True
RD3,POOLE HOSPITAL NHS FOUNDATION TRUST,BH15 2JB,50.721977,-1.97311,True
RHU,PORTSMOUTH HOSPITALS UNIVERSITY NHS TRUST,PO6 3LY,50.850287,-1.069917,True
RYT,PUBLIC HEALTH WALES NHS TRUST,CF10 4BZ,51.477137,-3.169663,True
RPC,QUEEN VICTORIA HOSPITAL NHS FOUNDATION TRUST,RH19 3DZ,51.135069,-0.002873,True
RXE,ROTHERHAM DONCASTER AND SOUTH HUMBER NHS FOUNDATION TRUST,DN4 8QN,53.494823,-1.145978,True
RHW,ROYAL BERKSHIRE NHS FOUNDATION TRUST,RG1 5AN,51.451023,-0.95931,True
REF,ROYAL CORNWALL HOSPITALS NHS TRUST,TR1 3LJ,50.266675,-5.091511,True
RH8,ROYAL DEVON UNIVERSITY HEALTHCARE NHS FOUNDATION TRUST,EX2 5DW,50.716692,-3.506694,True
RAL,ROYAL FREE LONDON NHS FOUNDATION TRUST,NW3 2QG,51.553227,-0.165298,True
RQ6,ROYAL LIVERPOOL AND BROADGREEN UNIVERSITY HOSPITALS NHS TRUST,L7 8XP,53.409523,-2.964809,True
RAN,ROYAL NATIONAL ORTHOPAEDIC HOSPITAL NHS TRUST,HA7 4LP,51.632569,-0.310412,True
RGM,ROYAL PAPWORTH HOSPITAL NHS FOUNDATION TRUST,CB2 0AY,52.173522,0.136045,True
RA2,ROYAL SURREY NHS FOUNDATION TRUST,GU2 7XX,51.241012,-0.607443,True
RD1,ROYAL UNITED HOSPITALS BATH NHS FOUNDATION TRUST,BA1 3NG,51.391662,-2.391217,True
RPR,ROYAL WEST SUSSEX NHS TRUST,PO19 6SE,50.843544,-0.768008,True
RNZ,SALISBURY NHS FOUNDATION TRUST,SP2 8BJ,51.04394,-1.789814,True
RXK,SANDWELL AND WEST BIRMINGHAM HOSPITALS NHS TRUST,B66 2QT,52.491258,-1.949846,True
RCC,SCARBOROUGH AND NORTH EAST YORKSHIRE HEALTH CARE NHS TRUST,YO12 6QL,54.281725,-0.43477,True
RCU,SHEFFIELD CHILDREN'S NHS FOUNDATION TRUST,S10 2TH,53.380617,-1.490628,True
RHQ,SHEFFIELD TEACHING HOSPITALS NHS FOUNDATION TRUST,S5 7AU,53.409821,-1.455966,True
RK5,SHERWOOD FOREST HOSPITALS NHS FOUNDATION TRUST,NG17 4JL,53.134573,-1.233579,True
R1D,SHROPSHIRE COMMUNITY HEALTH NHS TRUST,SY2 6FG,52.690597,-2.72109,True
R1C,SOLENT NHS TRUST,SO19 8BR,50.901678,-1.33085,True
RH5,SOMERSET NHS FOUNDATION TRUST,TA1 5DA,51.011569,-3.121702,True
RYE,SOUTH CENTRAL AMBULANCE SERVICE NHS FOUNDATION TRUST,OX26 6HR,51.891776,-1.14948,True
RYD,SOUTH EAST COAST AMBULANCE SERVICE NHS FOUNDATION TRUST,RH10 9BG,51.133206,-0.168128,True
RWN,SOUTH ESSEX PARTNERSHIP UNIVERSITY NHS FOUNDATION TRUST,SS11 7XX,51.633013,0.543374,True
RV5,SOUTH LONDON AND MAUDSLEY NHS FOUNDATION TRUST,BR3 3BX,51.38092,-0.029741,True
RYQ,SOUTH LONDON HEALTHCARE NHS TRUST,DA14 6LT,51.419041,0.101687,True
RTR,SOUTH TEES HOSPITALS NHS FOUNDATION TRUST,TS4 3BW,54.551768,-1.21482,True
R0B,SOUTH TYNESIDE AND SUNDERLAND NHS FOUNDATION TRUST,SR4 7TP,54.902214,-1.410327,True
RE9,SOUTH TYNESIDE NHS FOUNDATION TRUST,NE34 0PL,54.971208,-1.428469,True
RJC,SOUTH WARWICKSHIRE UNIVERSITY NHS FOUNDATION TRUST,CV34 5BW,52.289965,-1.583203,True
RQY,SOUTH WEST LONDON AND ST GEORGE'S MENTAL HEALTH NHS TRUST,SW17 7DJ,51.437358,-0.172348,True
RXG,SOUTH WEST YORKSHIRE PARTNERSHIP NHS FOUNDATION TRUST,WF1 3SP,53.697356,-1.494057,True
RYF,SOUTH WESTERN AMBULANCE SERVICE NHS FOUNDATION TRUST,EX2 7HY,50.720158,-3.464758,True
RVY,SOUTHPORT AND ORMSKIRK HOSPITAL NHS TRUST,PR8 6PN,53.63357,-2.978821,True
RJ7,ST GEORGE'S UNIVERSITY HOSPITALS NHS FOUNDATION TRUST,SW17 0QT,51.426682,-0.175694,True
R1E,STAFFORDSHIRE AND STOKE ON TRENT PARTNERSHIP NHS TRUST,ST5 1QG,53.010145,-2.227615,True
RWJ,STOCKPORT NHS FOUNDATION TRUST,SK2 7JE,53.383794,-2.132019,True
RXX,SURREY AND BORDERS PARTNERSHIP NHS FOUNDATION TRUST,KT22 7AD,51.29759,-0.335606,True
RTP,SURREY AND SUSSEX HEALTHCARE NHS TRUST,RH1 5RH,51.219192,-0.161983,True
RDR,SUSSEX COMMUNITY NHS FOUNDATION TRUST,BN2 3EW,50.831176,-0.114497,True
RX2,SUSSEX PARTNERSHIP NHS FOUNDATION TRUST,BN13 3EP,50.841203,-0.411137,True
RMP,TAMESIDE AND GLOSSOP INTEGRATED CARE NHS FOUNDATION TRUST,OL6 9RW,53.491546,-2.071432,True
RBA,TAUNTON AND SOMERSET NHS FOUNDATION TRUST,TA1 5DA,51.011569,-3.121702,True
RNK,TAVISTOCK AND PORTMAN NHS FOUNDATION TRUST,NW3 5BA,51.546901,-0.175418,True
RX3,"TEES, ESK AND WEAR VALLEYS NHS FOUNDATION TRUST",DL2 2TS,54.543494,-1.591147,True
RBV,THE CHRISTIE NHS FOUNDATION TRUST,M20 4BX,53.429783,-2.230124,True
REN,THE CLATTERBRIDGE CANCER CENTRE NHS FOUNDATION TRUST,CH63 4JY,53.332283,-3.025849,True
RNA,THE DUDLEY GROUP NHS FOUNDATION TRUST,DY1 2HQ,52.501908,-2.117684,True
RAS,THE HILLINGDON HOSPITALS NHS FOUNDATION TRUST,UB8 3NN,51.526078,-0.461155,True
RTD,THE NEWCASTLE UPON TYNE HOSPITALS NHS FOUNDATION TRUST,NE7 7DN,55.002783,-1.593393,True
RQW,THE PRINCESS ALEXANDRA HOSPITAL NHS TRUST,CM20 1QX,51.771322,0.087315,True
RCX,"THE QUEEN ELIZABETH HOSPITAL, KING'S LYNN, NHS FOUNDATION TRUST",PE30 4ET,52.75663,0.446694,True
RL1,THE ROBERT JONES AND AGNES HUNT ORTHOPAEDIC HOSPITAL NHS FOUNDATION TRUST,SY10 7AG,52.884226,-3.032684,True
RFR,THE ROTHERHAM NHS FOUNDATION TRUST,S60 2UD,53.413991,-1.342881,True
RDZ,THE ROYAL BOURNEMOUTH AND CHRISTCHURCH HOSPITALS NHS FOUNDATION TRUST,BH7 7DW,50.747472,-1.820512,True
RPY,THE ROYAL MARSDEN NHS FOUNDATION TRUST,SW3 6JJ,51.490562,-0.172541,True
RRJ,THE ROYAL ORTHOPAEDIC HOSPITAL NHS FOUNDATION TRUST,B31 2AP,52.420088,-1.96116,True
RL4,THE ROYAL WOLVERHAMPTON NHS TRUST,WV10 0QP,52.599738,-2.095549,True
RXW,THE SHREWSBURY AND TELFORD HOSPITAL NHS TRUST,SY3 8XQ,52.709274,-2.793689,True
RET,THE WALTON CENTRE NHS FOUNDATION TRUST,L9 7LJ,53.466411,-2.930999,True
RA9,TORBAY AND SOUTH DEVON NHS FOUNDATION TRUST,TQ2 7AA,50.482303,-3.553819,True
RWD,UNITED LINCOLNSHIRE TEACHING HOSPITALS NHS TRUST,LN2 5QY,53.233597,-0.519635,True
RRV,UNIVERSITY COLLEGE LONDON HOSPITALS NHS FOUNDATION TRUST,NW1 2PG,51.525737,-0.137384,True
RM2,UNIVERSITY HOSPITAL OF SOUTH MANCHESTER NHS FOUNDATION TRUST,M23 9LT,53.387938,-2.293183,True
RHM,UNIVERSITY HOSPITAL SOUTHAMPTON NHS FOUNDATION TRUST,SO16 6YD,50.933011,-1.435095,True
RRK,UNIVERSITY HOSPITALS BIRMINGHAM NHS FOUNDATION TRUST,B15 2GW,52.451833,-1.942563,True
RA7,UNIVERSITY HOSPITALS BRISTOL AND WESTON NHS FOUNDATION TRUST,BS1 3NU,51.459476,-2.593021,True
RKB,UNIVERSITY HOSPITALS COVENTRY AND WARWICKSHIRE NHS TRUST,CV2 2DX,52.421229,-1.438395,True
R0D,UNIVERSITY HOSPITALS DORSET NHS FOUNDATION TRUST,BH15 2JB,50.721977,-1.97311,True
RTG,UNIVERSITY HOSPITALS OF DERBY AND BURTON NHS FOUNDATION TRUST,DE22 3NE,52.910425,-1.513523,True
RWE,UNIVERSITY HOSPITALS OF LEICESTER NHS TRUST,LE1 5WW,52.6268,-1.135953,True
RTX,UNIVERSITY HOSPITALS OF MORECAMBE BAY NHS FOUNDATION TRUST,LA9 7RG,54.306116,-2.731605,True
RJE,UNIVERSITY HOSPITALS OF NORTH MIDLANDS NHS TRUST,ST4 6QG,53.003262,-2.211798,True
RK9,UNIVERSITY HOSPITALS PLYMOUTH NHS TRUST,PL6 8DH,50.416707,-4.113712,True
RYR,UNIVERSITY HOSPITALS SUSSEX NHS FOUNDATION TRUST,BN11 2DH,50.816683,-0.363404,True
RQF,VELINDRE NHS TRUST,CF15 7QZ,51.565918,-3.277885,True
RBK,WALSALL HEALTHCARE NHS TRUST,WS2 9PS,52.582346,-1.998918,True
RWW,WARRINGTON AND HALTON TEACHING HOSPITALS NHS FOUNDATION TRUST,WA5 1QG,53.393989,-2.610717,True
RT4,WELSH AMBULANCE SERVICES NHS TRUST,LL17 0LJ,53.252387,-3.478568,True
RWG,WEST HERTFORDSHIRE TEACHING HOSPITALS NHS TRUST,WD18 0HB,51.648926,-0.404165,True
RKL,WEST LONDON NHS TRUST,UB2 4SD,51.506315,-0.358547,True
RFW,WEST MIDDLESEX UNIVERSITY HOSPITAL NHS TRUST,TW7 6AF,51.473648,-0.324413,True
RYA,WEST MIDLANDS AMBULANCE SERVICE UNIVERSITY NHS FOUNDATION TRUST,DY5 1LX,52.485661,-2.119039,True
RGR,WEST SUFFOLK NHS FOUNDATION TRUST,IP33 2QZ,52.231679,0.709205,True
RA3,WESTON AREA HEALTH NHS TRUST,BS23 4TQ,51.322331,-2.971405,True
RKE,WHITTINGTON HEALTH NHS TRUST,N19 5NF,51.566482,-0.139066,True
RN1,WINCHESTER AND EASTLEIGH HEALTHCARE NHS TRUST,SO22 5DG,51.0617,-1.329159,True
RY7,WIRRAL COMMUNITY HEALTH AND CARE NHS FOUNDATION TRUST,CH42 0LQ,53.380046,-3.026531,True
RBL,WIRRAL UNIVERSITY TEACHING HOSPITAL NHS FOUNDATION TRUST,CH49 5PE,53.36964,-3.096815,True
RWP,WORCESTERSHIRE ACUTE HOSPITALS NHS TRUST,WR5 1DD,52.191205,-2.181154,True
RRF,"WRIGHTINGTON, WIGAN AND LEIGH TEACHING HOSPITALS NHS FOUNDATION TRUST",WN1 2NN,53.557755,-2.629091,True
RLQ,WYE VALLEY NHS TRUST,HR1 2ER,52.058529,-2.707776,True
RA4,YEOVIL DISTRICT HOSPITAL NHS FOUNDATION TRUST,BA21 4AT,50.944835,-2.634713,True
RCB,YORK AND SCARBOROUGH TEACHING HOSPITALS NHS FOUNDATION TRUST,YO31 8HE,53.96897,-1.084294,True
RX8,YORKSHIRE AMBULANCE SERVICE NHS TRUST,WF2 0XQ,53.709422,-1.518789,True
